{
  "barajlar": [
    {
      "id": "tahtali",
      "name": "Tahtalı Barajı",
      "type": "baraj",
      "lat": 38.088611,
      "lng": 27.041667,
      "capacity": 180000000,
      "year": 1996,
      "district": "Menderes"
    },
    {
      "id": "guzelhisar",
      "name": "Güzelhisar Barajı",
      "type": "baraj",
      "lat": 38.790833,
      "lng": 27.105278,
      "capacity": 16100000,
      "year": 1981,
      "district": "Menemen"
    },
    {
      "id": "balcova",
      "name": "Balçova Barajı",
      "type": "baraj",
      "lat": 38.372778,
      "lng": 27.038611,
      "capacity": 8200000,
      "year": 1983,
      "district": "Balçova"
    },
    {
      "id": "urkmez",
      "name": "Ürkmez Barajı",
      "type": "baraj",
      "lat": 38.093611,
      "lng": 26.955556,
      "capacity": 6400000,
      "year": 2015,
      "district": "Seferihisar"
    },
    {
      "id": "gordes",
      "name": "Gördes Barajı",
      "type": "baraj",
      "lat": 38.761944,
      "lng": 28.056944,
      "capacity": 450000000,
      "year": 2020,
      "district": "Manisa/Gördes"
    },
    {
      "id": "kutlu-aktas",
      "name": "Alaçatı Kutlu Aktaş Barajı",
      "type": "baraj",
      "lat": 38.282778,
      "lng": 26.405833,
      "capacity": 4700000,
      "year": 1997,
      "district": "Çeşme"
    },
    {
      "id": "sarnicli",
      "name": "Sarnıçlı Barajı",
      "type": "baraj",
      "lat": 38.435,
      "lng": 27.055,
      "capacity": 1600000,
      "year": 2012,
      "district": "Bornova"
    },
    {
      "id": "kavakdere",
      "name": "Kavakdere Barajı",
      "type": "baraj",
      "lat": 38.1769,
      "lng": 26.9016,
      "capacity": 1200000,
      "year": 1996,
      "district": "Narlıdere"
    }
  ],
  "kuyular": [
    {
      "id": "goksu",
      "name": "Göksu Kuyuları",
      "type": "kuyu",
      "lat": 38.765,
      "lng": 27.198,
      "district": "Menemen"
    },
    {
      "id": "halkapinar",
      "name": "Halkapınar Kuyuları",
      "type": "kuyu",
      "lat": 38.427881400824894,
      "lng": 27.17349205227562,
      "district": "Konak"
    },
    {
      "id": "sarikiz",
      "name": "Sarıkız Kuyuları",
      "type": "kuyu",
      "lat": 38.79,
      "lng": 27.15,
      "district": "Menemen"
    },
    {
      "id": "buca",
      "name": "Buca Kuyuları",
      "type": "kuyu",
      "lat": 38.388,
      "lng": 27.18,
      "district": "Buca"
    },
    {
      "id": "gediz",
      "name": "Gediz Kuyuları",
      "type": "kuyu",
      "lat": 38.78,
      "lng": 27.12,
      "district": "Menemen"
    }
  ],
  "consumption": {
    "dailyPerCapita": 215,
    "population": 4500000,
    "dailyTotal": 967500000,
    "unit": "liters"
  }
}
